,City,Cloudiness,Country,Date,Humidity,Lat,Lng,Max Temp,Wind Speed
0,Atuona,3,PF,1597780296,74,-9.8,-139.03,79.2,21.5
1,Te Anau,100,NZ,1597780296,89,-45.42,167.72,42.94,2.1
2,Mataura,100,NZ,1597780297,81,-46.19,168.86,43.84,5.08
3,Rikitea,0,PF,1597780297,79,-23.12,-134.97,72.05,10.85
4,Saint George,1,US,1597780297,13,37.1,-113.58,106.0,6.17
5,Flinders,0,AU,1597780297,63,-34.58,150.86,55.0,3.0
6,Jepelacio,88,PE,1597780297,59,-6.12,-76.95,80.8,4.14
7,Muros,100,ES,1597780297,87,42.78,-9.06,69.01,11.01
8,Torbay,90,CA,1597780297,77,47.67,-52.73,62.01,21.92
9,Gamba,100,GA,1597780232,88,-2.65,10.0,73.76,10.42
10,Grindavik,75,IS,1597780298,100,63.84,-22.43,51.8,14.99
11,George Town,20,MY,1597780298,94,5.41,100.34,80.6,5.82
12,Kolodeznyy,38,RU,1597780298,68,51.33,39.18,64.4,4.47
13,Clyde River,75,CA,1597780037,59,70.47,-68.59,60.8,5.82
14,Cape Town,20,ZA,1597780224,66,-33.93,18.42,52.0,8.05
15,Punta Arenas,40,CL,1597780299,47,-53.15,-70.92,37.4,17.22
16,Lebu,67,CL,1597780223,68,-37.62,-73.65,49.75,10.29
17,Alofi,37,NU,1597780299,94,-19.06,-169.92,73.4,9.17
18,Hong Kong,75,HK,1597780298,94,22.29,114.16,80.01,31.09
19,Vaini,90,TO,1597780299,100,-21.2,-175.2,73.4,29.55
20,Kushima,67,JP,1597780299,76,31.46,131.23,79.39,3.42
21,Busselton,34,AU,1597780299,76,-33.65,115.33,42.01,6.49
22,Saint-Philippe,46,RE,1597780300,77,-21.36,55.77,69.8,4.7
23,Albany,12,US,1597780300,46,42.6,-73.97,80.01,10.92
24,Ushuaia,90,AR,1597780300,74,-54.8,-68.3,33.8,16.11
25,Arraial do Cabo,52,BR,1597780301,78,-22.97,-42.03,78.8,14.99
26,Beringovskiy,3,RU,1597780301,61,63.05,179.32,51.66,10.74
27,Faanui,0,PF,1597780202,78,-16.48,-151.75,78.3,18.34
28,Upernavik,100,GL,1597780221,53,72.79,-56.15,50.31,5.19
29,Tiksi,93,RU,1597780302,84,71.69,128.87,38.5,11.92
30,Bad Freienwalde,100,DE,1597780302,79,52.79,14.03,68.0,5.91
31,Santa Cruz Cabrália,40,BR,1597780303,69,-16.28,-39.02,77.0,6.93
32,Tuatapere,100,NZ,1597780303,85,-46.13,167.68,44.38,7.25
33,Lavrentiya,89,RU,1597780303,72,65.58,-171.0,50.52,4.34
34,Cherskiy,100,RU,1597780080,83,68.75,161.3,42.44,10.16
35,Barrow,90,US,1597780166,93,71.29,-156.79,46.4,14.99
36,Kaitangata,100,NZ,1597780228,73,-46.28,169.85,46.99,4.0
37,Benjamín Hill,0,MX,1597780304,37,30.17,-111.1,99.0,5.01
38,Butaritari,2,KI,1597780304,71,3.07,172.79,82.92,10.11
39,Port Elizabeth,59,ZA,1597780304,81,-33.92,25.57,51.8,24.16
40,Kirakira,78,SB,1597780305,84,-10.45,161.92,79.16,7.54
41,Haines Junction,99,CA,1597780305,66,60.75,-137.51,53.91,1.52
42,Longyearbyen,75,SJ,1597780305,75,78.22,15.64,42.8,11.41
43,Qaanaaq,100,GL,1597780237,82,77.48,-69.36,44.74,10.45
44,Talnakh,27,RU,1597780305,62,69.49,88.4,57.2,6.71
45,Newala,17,TZ,1597780305,93,-10.94,39.28,63.86,8.93
46,Ambon City,47,ID,1597780306,16,-3.7,128.18,75.0,9.22
47,Necochea,91,AR,1597780306,56,-38.55,-58.74,48.99,15.01
48,Kuala Sungai Baru,20,MY,1597780306,94,2.36,102.04,77.0,7.85
49,Grand Gaube,7,MU,1597780306,74,-20.01,57.66,71.01,5.01
50,Iqaluit,75,CA,1597780306,81,63.75,-68.51,44.6,13.87
51,Salta,0,AR,1597780286,9,-24.79,-65.41,84.2,5.82
52,Marystown,100,CA,1597780307,94,47.17,-55.15,61.63,24.05
53,Avarua,72,CK,1597780307,73,-21.21,-159.78,73.4,12.75
54,Norman Wells,75,CA,1597780307,71,65.28,-126.83,57.2,3.36
55,Codrington,100,AU,1597780307,95,-38.27,141.97,46.92,7.63
56,City of San Pedro,100,PH,1597780307,94,14.35,121.02,79.0,1.12
57,Kapaa,20,US,1597780232,65,22.08,-159.32,84.0,16.11
58,Bluff,100,NZ,1597780308,77,-46.6,168.33,47.17,14.09
59,Salima,0,MW,1597780308,58,-13.78,34.46,67.24,2.28
60,Bethel,20,US,1597780308,42,41.37,-73.41,82.99,10.29
61,Nanjing,0,CN,1597780135,83,32.06,118.78,84.99,4.47
62,Hūn,0,LY,1597780309,17,29.13,15.95,92.37,11.27
63,Shelabolikha,40,RU,1597780309,72,53.41,82.62,59.0,6.71
64,Mehamn,75,NO,1597780309,76,71.04,27.85,51.8,13.87
65,Getulio Vargas,7,UY,1597780309,75,-32.68,-53.55,63.75,7.4
66,Emerald,0,AU,1597780309,52,-23.53,148.17,66.2,4.7
67,Port Alfred,85,ZA,1597780309,70,-33.59,26.89,53.69,32.5
68,Ostrovnoy,0,RU,1597780310,76,68.05,39.51,45.52,7.14
69,Vila do Maio,75,CV,1597780310,78,15.13,-23.22,82.4,6.93
70,Yellowknife,75,CA,1597780245,77,62.46,-114.35,62.6,8.05
71,Philadelphia,75,US,1597780150,48,39.95,-75.16,86.0,10.18
72,Airai,76,TL,1597780310,73,-8.93,125.41,54.66,2.42
73,Wilmington,75,US,1597780272,55,34.23,-77.94,90.0,7.47
74,Meadow Lake,20,US,1597780310,23,34.8,-106.54,93.0,4.7
75,Qaqortoq,20,GL,1597780080,42,60.72,-46.03,64.4,6.93
76,Lorengau,53,PG,1597780311,78,-2.02,147.27,81.09,7.4
77,Vredendal,99,ZA,1597780311,67,-31.67,18.5,48.49,8.05
78,Khatanga,82,RU,1597780311,71,71.97,102.5,48.96,12.37
79,Ahipara,73,NZ,1597780311,92,-35.17,173.17,58.51,9.86
80,Ribeira Grande,75,PT,1597780311,94,38.52,-28.7,75.2,25.28
81,Udachny,94,RU,1597780311,53,66.42,112.4,50.0,2.24
82,Sayyan,92,YE,1597780311,48,15.17,44.32,68.79,5.84
83,Jamestown,40,US,1597780312,56,42.1,-79.24,72.0,17.22
84,East London,78,ZA,1597780312,65,-33.02,27.91,53.2,33.6
85,Sola,75,VU,1597780312,87,-13.88,167.55,78.73,9.48
86,Leningradskiy,15,RU,1597780284,58,69.38,178.42,47.44,4.94
87,Luang Prabang,100,LA,1597780313,88,19.89,102.13,71.96,1.16
88,Muisne,75,EC,1597780313,74,0.6,-80.03,80.6,11.41
89,Pisco,3,PE,1597780314,68,-13.7,-76.22,68.0,13.87
90,Saldanha,100,ZA,1597780314,76,-33.01,17.94,50.0,4.7
91,Dunedin,100,NZ,1597780038,71,-45.87,170.5,46.99,8.55
92,Kupang,91,ID,1597780314,82,-10.17,123.58,71.49,5.19
93,Ellisras,0,ZA,1597780314,31,-23.66,27.74,58.03,11.86
94,Samarai,93,PG,1597780314,68,-10.62,150.67,73.35,6.67
95,Saint Paul Harbor,1,US,1597780314,63,57.79,-152.41,60.8,6.93
96,Tilzapotla,20,MX,1597780315,50,18.48,-99.27,78.8,3.36
97,Tuktoyaktuk,40,CA,1597780183,67,69.45,-133.04,57.2,9.17
98,Andenes,75,NO,1597780315,93,69.31,16.12,50.0,10.29
99,La Gomera,40,GT,1597780315,62,14.08,-91.05,89.6,16.11
100,Khandyga,0,RU,1597780315,95,62.67,135.6,40.5,1.9
101,Arrondissement de Provins,53,FR,1597780315,64,48.58,3.17,71.01,4.7
102,Jati,100,PK,1597780315,76,24.35,68.27,85.01,14.29
103,Mar del Plata,100,AR,1597780316,62,-38.0,-57.56,53.01,12.75
104,Chokurdakh,65,RU,1597780316,86,70.63,147.92,35.6,6.8
105,Hilo,75,US,1597780037,61,19.73,-155.09,82.4,8.05
106,Tasiilaq,40,GL,1597780316,71,65.61,-37.64,51.8,3.36
107,Banjar,40,ID,1597780316,100,-8.19,114.97,77.0,9.17
108,Carnarvon,54,AU,1597780291,77,-24.87,113.63,59.0,10.29
109,Rocha,0,UY,1597780316,64,-34.48,-54.33,62.87,3.74
110,Gwadar,80,PK,1597780317,83,25.12,62.33,82.4,7.63
111,Puerto Ayora,40,EC,1597780317,61,-0.74,-90.35,78.8,16.11
112,Nikolskoye,4,RU,1597780317,71,59.7,30.79,57.2,4.47
113,Hermanus,84,ZA,1597780317,91,-34.42,19.23,45.0,8.68
114,Severo-Kuril'sk,100,RU,1597780317,90,50.68,156.12,50.27,13.11
115,Luganville,20,VU,1597780317,83,-15.53,167.17,75.2,3.36
116,Östersund,93,SE,1597780318,72,63.18,14.64,64.4,10.29
117,Inhambane,20,MZ,1597780318,94,-23.86,35.38,71.6,17.22
118,Bredasdorp,100,ZA,1597780318,76,-34.53,20.04,50.0,8.05
119,Ankang,100,CN,1597780318,89,32.68,109.02,69.91,0.98
120,Lovozero,76,RU,1597780318,72,68.0,35.01,48.69,4.54
121,Anadyr,90,RU,1597780318,100,64.75,177.48,44.6,4.47
122,Safi,0,MA,1597780318,79,32.3,-9.24,72.01,19.8
123,Vila Franca do Campo,75,PT,1597780319,94,37.72,-25.43,75.2,18.34
124,Malanje,0,AO,1597780319,45,-9.54,16.34,70.65,6.91
125,Turan,75,VN,1597780319,88,16.07,108.22,78.8,3.36
126,Jodiya,100,IN,1597780319,85,22.69,70.31,82.15,16.2
127,Lagos,20,NG,1597780319,88,6.58,3.75,77.0,8.05
128,Lleida,100,ES,1597780320,60,41.62,0.62,77.0,4.7
129,Athabasca,21,CA,1597780320,47,54.72,-113.29,82.13,4.99
130,Naze,75,JP,1597780264,100,28.37,129.48,78.8,3.36
131,Barra do Garças,1,BR,1597780320,15,-15.89,-52.26,98.96,8.66
132,Souillac,20,MU,1597780320,73,-20.52,57.52,71.6,13.87
133,Evensk,100,RU,1597780321,81,61.95,159.23,49.39,5.44
134,Ancud,75,CL,1597780321,75,-41.87,-73.82,42.8,10.29
135,Cabo San Lucas,75,MX,1597780321,62,22.89,-109.91,91.4,12.75
136,Hualmay,17,PE,1597780321,66,-11.1,-77.61,65.61,12.71
137,Castro,100,BR,1597780321,91,-24.79,-50.01,61.9,6.82
138,Manicoré,0,BR,1597780321,17,-5.81,-61.3,103.42,4.16
139,Batticaloa,97,LK,1597780322,82,7.71,81.69,80.2,5.91
140,Huarmey,3,PE,1597780322,65,-10.07,-78.15,66.76,13.22
141,Saint Anthony,1,US,1597780322,41,45.02,-93.22,81.0,3.69
142,Caravelas,1,BR,1597780322,75,-17.71,-39.25,75.4,8.9
143,Taganak,20,PH,1597780322,94,6.08,118.3,78.8,3.36
144,Shimanovsk,0,RU,1597780322,71,52.0,127.7,46.54,9.62
145,Maputo,75,MZ,1597780080,77,-25.97,32.59,69.8,13.87
146,San Patricio,75,MX,1597780323,94,19.22,-104.7,78.8,9.17
147,Pathein,100,MM,1597780323,89,16.78,94.73,78.46,5.86
148,Arica,35,CL,1597780323,68,-18.48,-70.3,64.4,11.41
149,Marsabit,69,KE,1597780323,72,2.33,37.99,66.45,20.67
150,Provincia di Cagliari,27,IT,1597780323,65,39.24,9.09,84.99,11.41
151,Antakya,4,TR,1597780324,65,36.21,36.16,82.4,6.93
152,Poyarkovo,31,RU,1597780324,78,49.6,128.68,46.53,7.58
153,Kahului,75,US,1597780324,51,20.89,-156.47,86.0,20.8
154,Shirpur,100,IN,1597780324,89,21.35,74.88,77.72,10.58
155,Santa Isabel Rio Negro,97,BR,1597780324,42,-0.41,-65.02,94.6,3.58
156,Salinópolis,8,BR,1597780324,73,-0.61,-47.36,82.81,14.61
157,Simao,100,CN,1597780325,97,22.79,100.97,64.47,1.52
158,Egvekinot,4,RU,1597780325,75,66.32,-179.17,47.55,0.43
159,Aksu,97,CN,1597780325,26,41.12,80.26,79.72,12.97
160,Khilok,42,RU,1597780128,80,51.37,110.47,42.67,3.98
161,Genhe,0,CN,1597780325,83,50.78,121.52,38.08,1.9
162,Bathsheba,75,BB,1597780325,70,13.22,-59.52,86.0,12.75
163,Port-Gentil,64,GA,1597780325,87,-0.72,8.78,76.3,16.33
164,Kirkuk,0,IQ,1597780326,15,35.47,44.39,81.77,5.35
165,Bambous Virieux,20,MU,1597780249,73,-20.34,57.76,71.6,13.87
166,Qasigiannguit,75,GL,1597780326,40,68.82,-51.19,53.6,3.36
167,Vao,24,NC,1597780326,61,-22.67,167.48,68.67,10.71
168,Lata,0,PT,1597780326,67,40.16,-8.33,73.99,5.99
169,Yar-Sale,94,RU,1597780326,77,66.83,70.83,56.1,11.48
170,Mount Gambier,90,AU,1597780326,93,-37.83,140.77,46.4,4.16
171,Preobrazheniye,0,RU,1597780327,87,42.9,133.91,71.01,8.23
172,Kodīnar,99,IN,1597780327,85,20.79,70.7,81.1,16.28
173,Kruisfontein,76,ZA,1597780327,79,-34.0,24.73,48.47,19.93
174,Luanda,75,AO,1597780289,78,-8.84,13.23,71.6,6.93
175,Dhidhdhoo,100,MV,1597780327,72,6.88,73.1,82.2,6.73
176,Pevek,100,RU,1597780210,87,69.7,170.31,39.61,11.43
177,Izumo,20,JP,1597780328,94,35.37,132.77,75.2,4.7
178,Romitan,0,UZ,1597780328,40,39.93,64.38,68.0,6.93
179,Snezhnogorsk,40,RU,1597780328,81,69.19,33.25,50.0,4.47
180,Hasaki,75,JP,1597780328,94,35.73,140.83,77.0,6.93
181,Storsteinnes,75,NO,1597780328,93,69.24,19.23,50.0,11.41
182,Taman',0,RU,1597780328,64,45.21,36.72,69.8,6.71
183,Bengkulu,45,ID,1597780328,83,-3.8,102.27,75.78,4.43
184,Bhīm Tāl,11,IN,1597780329,100,29.35,79.57,65.28,0.6
185,Aklavik,20,CA,1597780329,62,68.22,-135.01,59.0,10.29
186,Pringsewu,99,ID,1597780329,91,-5.36,104.97,73.49,1.16
187,Havre-St-Pierre,75,CA,1597780329,60,50.23,-63.6,68.0,10.29
188,Kunashak,75,RU,1597780329,100,55.7,61.55,50.0,15.66
189,Cootamundra,78,AU,1597780329,88,-34.65,148.03,46.0,1.99
190,Westfield,40,US,1597780329,37,42.13,-72.75,84.0,10.29
191,Kalmunai,73,LK,1597780330,83,7.42,81.82,79.84,5.5
192,Hobart,75,AU,1597780217,75,-42.88,147.33,44.6,2.24
193,Geraldton,100,AU,1597780034,100,-28.77,114.6,46.4,8.05
194,Humaitá,1,BR,1597780330,20,-7.51,-63.02,103.64,4.29
195,Thompson,75,CA,1597780330,56,55.74,-97.86,69.8,4.7
196,Saskylakh,100,RU,1597780032,84,71.92,114.08,44.67,12.12
197,Nyrob,100,RU,1597780330,97,60.73,56.72,48.69,6.11
198,São Filipe,41,CV,1597780286,85,14.9,-24.5,79.27,3.98
199,Laguna,1,US,1597780331,26,38.42,-121.42,100.99,9.17
200,Yangi Marg`ilon,21,UZ,1597780331,56,40.43,71.72,69.8,4.7
201,Ponta Delgada,75,PT,1597780307,94,37.73,-25.67,75.2,18.34
202,Touros,40,BR,1597780331,74,-5.2,-35.46,78.8,11.41
203,Tsumeb,0,NA,1597780331,28,-19.23,17.72,58.01,16.69
204,Rokupr,100,SL,1597780332,96,8.67,-12.39,75.15,4.65
205,Bandarbeyla,100,SO,1597780332,79,9.49,50.81,77.2,32.7
206,Kharp,98,RU,1597780332,86,66.8,65.81,51.91,9.26
207,Bonthe,80,SL,1597780332,89,7.53,-12.51,76.77,9.13
208,Blind River,20,CA,1597780332,52,46.18,-82.96,69.8,6.93
209,Teahupoo,20,PF,1597780332,65,-17.83,-149.27,82.4,1.12
210,Umm Kaddadah,99,SD,1597780332,45,13.6,26.69,87.73,6.87
211,Vung Tau,100,VN,1597780333,78,10.35,107.08,81.39,11.32
212,The Valley,40,AI,1597780333,66,18.22,-63.06,89.6,19.46
213,Laas,75,IT,1597780333,77,46.62,10.7,60.8,4.7
214,Nanortalik,0,GL,1597780333,64,60.14,-45.24,52.12,6.87
215,Dwārka,100,IN,1597780333,83,22.24,68.97,82.76,17.49
216,Dudinka,29,RU,1597780334,62,69.41,86.18,57.2,6.71
217,Bowen,0,AU,1597780334,100,-20.02,148.23,61.0,8.43
218,Punuare,22,HN,1597780334,72,14.73,-85.97,84.49,5.08
219,Quatre Cocos,20,MU,1597780334,73,-20.21,57.76,71.6,13.87
220,Kobylí,78,CZ,1597780334,88,48.93,16.89,68.0,4.7
221,Kyshtovka,0,RU,1597780334,92,56.55,76.63,51.28,7.7
222,Portland,20,US,1597780235,56,45.52,-122.68,79.0,11.41
223,Atyrau,3,KZ,1597780247,39,47.12,51.88,64.4,8.95
224,Ocotepec,97,MX,1597780335,100,17.22,-93.15,65.95,4.9
225,Umluj,0,SA,1597780335,54,25.02,37.27,88.25,4.16
226,Imbituba,75,BR,1597780335,88,-28.24,-48.67,68.0,12.75
227,Marsh Harbour,34,BS,1597780335,65,26.54,-77.06,85.39,6.49
228,Isangel,20,VU,1597780296,88,-19.55,169.27,68.0,8.03
229,Verkhnevilyuysk,90,RU,1597780336,62,63.45,120.32,52.61,5.57
230,Yemanzhelinsk,75,RU,1597780337,100,54.75,61.32,50.0,15.66
231,Vardø,87,NO,1597780123,87,70.37,31.11,50.0,14.99
232,Sechura,100,PE,1597780337,51,-5.56,-80.82,74.84,17.09
233,Banda Aceh,47,ID,1597780337,79,5.56,95.32,79.66,5.53
234,Bétaré Oya,95,CM,1597780337,95,5.6,14.08,68.61,2.04
235,Marsassoum,91,SN,1597780337,85,12.83,-15.98,79.7,7.23
236,Lüderitz,0,NA,1597780338,45,-26.65,15.16,57.56,24.81
237,Eyl,99,SO,1597780338,76,7.98,49.82,78.24,25.32
238,Spas-Demensk,99,RU,1597780338,79,54.41,34.02,55.62,4.81
239,Cedar City,1,US,1597780081,6,37.68,-113.06,95.0,3.36
240,Bamiantong,100,CN,1597780338,93,44.93,130.53,65.84,5.93
241,Mandalī,0,IQ,1597780338,15,33.75,45.55,83.93,5.86
242,Hammerfest,75,NO,1597780338,100,70.66,23.68,48.2,13.87
243,New Norfolk,45,AU,1597780220,84,-42.78,147.06,41.0,2.3
244,Alta Floresta,14,BR,1597780339,15,-9.88,-56.09,102.2,5.82
245,Tiznit Province,0,MA,1597780339,63,29.58,-9.5,70.59,2.68
246,Port Blair,100,IN,1597780326,79,11.67,92.75,82.24,13.94
247,Örnsköldsvik,3,SE,1597780339,93,63.29,18.72,60.8,3.36
248,Ponta do Sol,0,PT,1597780321,83,32.67,-17.1,72.0,3.02
249,Aswān,0,EG,1597780339,14,24.09,32.91,93.29,11.79
250,Nishihara,20,JP,1597780339,88,26.18,127.76,82.4,3.36
251,Ambilobe,6,MG,1597780340,72,-13.2,49.05,68.25,5.91
252,Palmas,40,BR,1597780174,28,-10.21,-48.36,96.8,6.93
253,Izhma,100,RU,1597780340,97,65.01,53.91,49.59,5.12
254,Caucayá,55,CO,1597780340,49,-0.19,-74.78,91.96,0.81
255,Nouakchott,40,MR,1597780211,74,18.09,-15.98,84.2,18.34
256,College,20,US,1597780329,55,64.86,-147.8,68.0,3.11
257,Dalvik,90,IS,1597780340,76,65.97,-18.53,51.8,16.11
258,Reserva,100,BR,1597780074,99,-24.65,-50.85,61.61,3.83
259,Port Hedland,0,AU,1597780261,62,-20.32,118.57,55.4,5.82
260,Hobyo,33,SO,1597780341,83,5.35,48.53,77.4,26.15
261,Vanderhoof,100,CA,1597780341,74,54.02,-124.02,61.45,2.84
262,Srandakan,71,ID,1597780341,85,-7.94,110.25,74.88,9.62
263,Waipawa,100,NZ,1597780341,66,-41.41,175.52,53.6,6.93
264,Nova Serrana,0,BR,1597780341,32,-19.88,-44.98,85.53,5.12
265,Barcelos,75,PT,1597780053,94,41.54,-8.62,70.0,11.41
266,Blythe,0,US,1597780138,18,33.61,-114.6,109.99,1.01
267,Bauska,85,LV,1597780342,77,56.41,24.19,64.4,3.36
268,Baie-Saint-Paul,100,CA,1597780342,91,47.44,-70.5,68.0,5.99
269,Kongolo,1,CD,1597780342,30,-5.38,27.0,81.41,3.06
270,Yaan,100,NG,1597780342,91,7.38,8.57,76.14,2.01
271,Komsomolets,89,KZ,1597780343,84,53.75,62.07,50.05,11.21
272,Sitka,40,US,1597780343,82,57.05,-135.33,57.2,3.36
273,Petropavlovsk-Kamchatskiy,90,RU,1597780343,100,53.05,158.65,51.8,6.71
274,Visby,0,SE,1597780343,100,57.64,18.3,66.0,3.36
275,Constitución,100,CL,1597780343,72,-35.33,-72.42,53.04,9.48
276,Mitú,31,CO,1597780343,55,1.2,-70.17,87.44,2.1
277,Almeirim,47,BR,1597780343,43,-1.52,-52.58,92.79,3.74
278,Ayr,40,GB,1597780344,88,55.46,-4.63,63.0,6.24
279,Cocoa,75,US,1597780344,79,28.39,-80.74,88.0,9.17
280,Mahon,20,ES,1597780344,78,39.89,4.27,78.8,3.36
281,Portsmouth,0,GB,1597780146,84,50.8,-1.09,66.99,7.78
282,Uyuni,0,BO,1597780209,38,-20.46,-66.83,49.1,46.8
283,Belmonte,40,BR,1597780344,69,-15.86,-38.88,77.0,6.93
284,Ushtobe,4,KZ,1597780345,48,45.25,77.98,63.27,7.36
285,Port Hardy,90,CA,1597780345,93,50.7,-127.42,60.8,3.36
286,Caraballeda,75,VE,1597780345,78,10.61,-66.85,82.4,4.7
287,Lydenburg,0,ZA,1597780345,40,-25.1,30.46,61.0,3.4
288,Vostok,85,RU,1597780345,100,46.49,135.88,59.32,2.1
289,West Wendover,1,US,1597780345,17,40.74,-114.07,93.2,10.29
290,Vestmannaeyjar,52,IS,1597780346,85,63.44,-20.27,53.56,22.19
291,Zhuhai,75,CN,1597780346,94,22.28,113.57,78.8,34.45
292,Dingle,100,PH,1597780346,91,11.0,122.67,75.07,3.33
293,Mahébourg,20,MU,1597780346,73,-20.41,57.7,71.6,13.87
294,Ucar,75,AZ,1597780346,56,40.52,47.65,73.4,4.7
295,Tūkrah,0,LY,1597780346,84,32.53,20.58,77.4,3.09
296,Świnoujście,100,PL,1597780347,95,53.91,14.25,69.01,9.01
297,Matipó,13,BR,1597780347,64,-20.28,-42.34,73.98,7.36
298,Maryville,20,US,1597780274,42,35.76,-83.97,89.01,4.7
299,Ukiah,1,US,1597780192,41,39.15,-123.21,97.0,3.36
300,Alice,20,US,1597780347,39,27.75,-98.07,96.8,8.05
301,Seymchan,100,RU,1597780347,90,62.88,152.43,46.2,1.95
302,Ilulissat,75,GL,1597780348,40,69.22,-51.1,53.6,3.36
303,Havøysund,75,NO,1597780348,93,71.0,24.66,48.2,5.82
304,Fairbanks,1,US,1597780172,45,64.84,-147.72,68.0,3.36
305,Burnie,100,AU,1597780331,91,-41.07,145.92,44.01,1.99
306,Pontevedra,40,ES,1597780348,88,42.43,-8.64,71.01,12.75
307,Manta,40,EC,1597780348,62,-0.95,-80.73,86.0,10.29
308,Hvide Sande,100,DK,1597780349,76,56.0,8.13,64.99,6.24
309,Asău,4,RO,1597780349,85,46.43,26.4,61.0,3.4
310,Bria,99,CF,1597780349,89,6.54,21.99,72.59,2.82
311,Red Bluff,1,US,1597780321,24,40.18,-122.24,100.4,4.7
312,Jizan,40,SA,1597780349,50,17.33,42.67,95.0,9.17
313,Lebanon,75,US,1597780146,45,36.21,-86.29,87.8,9.17
314,Taywarah,0,AF,1597780349,45,33.35,64.42,51.66,6.17
315,Jalu,0,LY,1597780262,33,29.03,21.55,86.32,12.06
316,Carauari,15,BR,1597780350,44,-4.88,-66.9,93.45,3.38
317,Yulara,0,AU,1597780350,48,-25.24,130.99,44.6,8.05
318,Antofagasta,20,CL,1597780232,58,-23.65,-70.4,59.0,14.99
319,Bariloche,75,AR,1597780350,35,-41.15,-71.31,39.2,12.75
320,Aljezur,0,PT,1597780350,57,37.32,-8.8,79.0,10.51
321,Dikson,0,RU,1597780350,71,73.51,80.55,52.79,6.02
322,Raudeberg,0,NO,1597780350,83,61.99,5.14,64.99,3.8
323,Peterhead,90,GB,1597780351,87,57.51,-1.8,61.0,5.82
324,Pascagoula,75,US,1597780055,59,30.37,-88.56,93.0,6.93
325,Walvis Bay,0,NA,1597780351,58,-22.96,14.51,55.99,9.17
326,Campo Maior,45,BR,1597780351,18,-4.83,-42.17,98.1,4.94
327,Provideniya,100,RU,1597780238,69,64.38,-173.3,52.07,6.71
328,Jimma,100,ET,1597780351,91,7.67,36.83,61.18,2.37
329,Kudahuvadhoo,47,MV,1597780351,67,2.67,72.89,82.81,4.61
330,Megion,40,RU,1597780351,87,61.03,76.11,59.0,4.47
331,Jiuquan,0,CN,1597780352,29,39.74,98.52,62.98,1.39
332,Vokhma,0,RU,1597780352,84,58.93,46.76,44.26,6.91
333,Abong Mbang,87,CM,1597780352,95,3.98,13.18,70.25,2.68
334,Ghanzi,0,BW,1597780352,50,-21.57,21.78,46.42,10.36
335,Sulangan,100,PH,1597780345,74,11.14,123.72,82.76,11.52
336,Erenhot,0,CN,1597780352,78,43.65,111.98,62.53,12.48
337,Atherton,10,GB,1597780353,72,53.52,-2.49,68.0,1.83
338,Odda,27,NO,1597780353,82,60.07,6.55,66.0,1.99
339,Kaduqli,100,SD,1597780353,89,11.02,29.72,74.35,6.26
340,Otradnoye,0,RU,1597780068,67,59.78,30.82,59.0,4.47
341,Merauke,1,ID,1597780239,79,-8.47,140.33,72.1,11.88
342,Paamiut,0,GL,1597780353,71,61.99,-49.67,47.79,4.74
343,Erzin,0,TR,1597780354,80,36.96,36.2,82.0,1.12
344,Kattivākkam,75,IN,1597780354,83,13.22,80.32,84.2,3.36
345,Gambēla,100,ET,1597780354,94,8.25,34.58,70.16,2.86
346,Ipilan,100,PH,1597780354,80,8.84,117.9,78.94,2.66
347,Okhotsk,100,RU,1597780355,86,59.38,143.3,52.3,10.25
348,Klaksvík,100,FO,1597780202,81,62.23,-6.59,51.8,1.12
349,Wiarton,75,CA,1597780355,68,44.74,-81.13,68.0,4.7
350,Margate,0,GB,1597780264,80,51.38,1.39,66.99,1.01
351,Kuching,40,MY,1597780355,100,1.55,110.33,73.4,1.12
352,Maltahöhe,0,NA,1597780355,59,-24.83,16.98,41.81,11.1
353,Saint-Leu,21,RE,1597780355,77,-21.15,55.28,69.8,4.7
354,Khorixas,0,NA,1597780356,46,-20.37,14.97,49.64,6.31
355,Xichang,100,CN,1597780356,83,27.9,102.26,60.22,3.09
356,Severodvinsk,0,RU,1597780356,87,64.56,39.83,44.6,4.47
357,Qarchī Gak,0,AF,1597780356,27,37.04,66.79,82.4,9.17
358,Santa Barbara,1,US,1597780356,57,34.42,-119.7,98.01,10.29
359,Berlevåg,75,NO,1597780357,76,70.86,29.09,51.8,13.87
360,Belaya Gora,100,RU,1597780357,59,68.53,146.42,48.18,2.06
361,Goderich,0,CA,1597780357,79,43.75,-81.72,71.01,5.99
362,Avesta,61,SE,1597780357,68,60.15,16.17,68.0,1.01
363,Sandwick,100,GB,1597780357,100,60.0,-1.25,59.0,4.7
364,Kiunga,63,PG,1597780357,96,-6.12,141.29,69.42,2.51
365,Bonavista,100,CA,1597780357,77,48.65,-53.11,60.01,11.01
366,Kushmurun,24,KZ,1597780358,83,52.45,64.63,53.98,7.45
367,Cidreira,99,BR,1597780180,94,-30.18,-50.21,63.52,10.92
368,San Felipe,100,VE,1597780358,86,10.34,-68.74,80.28,2.44
369,Gorin,99,RU,1597780358,92,51.2,136.67,52.02,3.15
370,Stokmarknes,75,NO,1597780358,81,68.56,14.91,51.8,8.05
371,Tiarei,20,PF,1597780358,65,-17.53,-149.33,82.4,1.12
372,Ribeira Brava,0,PT,1597780359,83,32.65,-17.07,72.0,2.39
373,Natá,20,PA,1597780359,63,8.33,-80.52,91.4,9.17
374,Yurimaguas,40,PE,1597780359,59,-5.9,-76.08,93.2,5.82
375,Kuito,0,AO,1597780359,26,-12.38,16.93,63.28,2.04
376,Pinawa,72,CA,1597780359,47,50.15,-95.88,82.74,6.17
377,Gazojak,0,TM,1597780243,24,41.19,61.4,71.38,11.68
378,Chul'man,7,RU,1597780360,91,56.85,124.91,35.47,2.73
379,Tymovskoye,100,RU,1597780360,95,50.85,142.66,59.5,4.03
380,Tuensang,100,IN,1597780360,84,26.28,94.83,70.72,2.24
381,Abu Dhabi,13,AE,1597780148,67,24.47,54.37,96.8,3.36
382,Batemans Bay,0,AU,1597780361,84,-35.72,150.18,43.0,3.0
383,Hithadhoo,22,MV,1597780196,75,-0.6,73.08,83.91,9.84
384,Větřní,100,CZ,1597780362,90,48.77,14.29,59.0,4.07
385,Krasnoarmeysk,1,RU,1597780362,52,51.02,45.7,62.01,4.92
386,Avera,75,US,1597780363,100,33.19,-82.53,91.0,10.29
387,Esperance,75,AU,1597780363,100,-33.87,121.9,48.2,14.99
388,Solnechnyy,10,RU,1597780363,92,50.72,136.63,48.61,3.44
389,Vanimo,56,PG,1597780364,84,-2.67,141.3,76.62,5.46
390,Brewster,20,US,1597780364,42,41.4,-73.62,84.0,10.29
391,Itaituba,38,BR,1597780364,25,-4.28,-55.98,100.33,3.87
392,Berdigestyakh,99,RU,1597780364,65,62.1,126.7,46.47,4.99
393,Lynchburg,20,US,1597780190,48,37.41,-79.14,87.01,5.82
394,Dalaba,99,GN,1597780365,100,10.7,-12.25,65.7,2.19
395,Zhaotong,100,CN,1597780365,92,27.32,103.72,55.42,0.92
396,Forsytheganj,100,BY,1597780365,74,52.63,29.73,68.14,7.11
397,Monkey Bay,0,MW,1597780365,67,-14.07,34.92,74.52,1.79
398,Bielsk Podlaski,94,PL,1597780365,79,52.77,23.19,68.0,1.59
399,Lagunas,29,PE,1597780365,44,-5.23,-75.68,93.94,4.38
400,Golden,75,US,1597780091,13,39.76,-105.22,97.0,8.05
401,Rome,40,US,1597780235,60,43.21,-75.46,75.0,13.87
402,Mocuba,0,MZ,1597780366,76,-16.84,36.99,69.64,4.29
403,Nóvita,90,CO,1597780366,85,4.96,-76.61,80.49,4.99
404,Mackay,43,AU,1597780366,88,-21.15,149.2,62.6,6.93
405,Pudozh,6,RU,1597780366,81,61.81,36.53,47.32,2.19
406,Palamós,100,ES,1597780366,50,41.85,3.13,75.0,5.64
407,Copiapó,20,CL,1597780367,51,-27.37,-70.33,59.0,10.29
408,Gbarnga,27,LR,1597780367,97,7.0,-9.47,71.83,4.81
409,Sémbé,100,CG,1597780367,93,1.65,14.58,72.99,2.44
410,Besuki,12,ID,1597780367,66,-7.73,113.7,76.95,3.69
411,Pangnirtung,75,CA,1597780367,81,66.15,-65.71,48.2,11.41
412,Cap Malheureux,5,MU,1597780367,74,-19.98,57.61,71.01,5.01
413,Adrar,0,MR,1597780368,10,20.5,-10.07,105.84,10.74
414,Piopio,100,NZ,1597780368,92,-38.47,175.02,55.0,4.0
415,Hulan,100,CN,1597780368,93,45.98,126.6,71.01,4.18
416,Yangcun,90,CN,1597780368,94,39.36,117.06,71.6,4.47
417,Kavaratti,90,IN,1597780368,80,10.57,72.64,81.75,10.56
418,Deputatsky,100,RU,1597780368,94,69.3,139.9,39.92,1.83
419,Zhigansk,59,RU,1597780368,95,66.77,123.37,47.21,12.77
420,Tessalit,0,ML,1597780369,9,20.2,1.01,99.48,8.81
421,Torrelavega,93,ES,1597780369,73,43.35,-4.05,77.0,1.99
422,Warmbad,0,NA,1597780369,53,-28.45,18.73,45.9,9.89
423,Ishigaki,89,JP,1597780369,77,24.34,124.16,84.0,6.44
424,Alekseyevsk,0,RU,1597780369,61,57.84,108.35,47.66,2.1
425,Mount Isa,0,AU,1597780369,46,-20.73,139.5,53.6,10.16
426,Mazagão,40,BR,1597780369,50,-0.12,-51.29,95.0,8.05
427,Walla Walla,1,US,1597780172,26,46.06,-118.34,97.0,6.93
428,Manono,0,CD,1597780370,25,-7.3,27.42,76.19,3.44
429,Taoudenni,14,ML,1597780370,14,22.68,-3.98,108.79,15.9
430,Srednekolymsk,100,RU,1597780370,62,67.45,153.68,46.94,2.01
431,Bridlington,98,GB,1597780370,82,54.08,-0.19,66.2,3.36
432,Kudymkar,100,RU,1597780370,93,59.02,54.66,44.42,7.49
433,Nhulunbuy,96,AU,1597780371,77,-12.23,136.77,62.6,4.47
434,Roald,16,NO,1597780371,88,62.58,6.13,66.0,4.7
435,Gueugnon,0,FR,1597780371,56,46.6,4.06,73.4,1.72
436,Alakurtti,71,RU,1597780371,92,66.97,30.35,43.0,2.42
437,Price,1,US,1597780371,7,39.6,-110.81,93.2,6.93
438,Działdowo,40,PL,1597780371,100,53.24,20.17,59.0,3.36
439,Am Timan,100,TD,1597780371,90,11.03,20.28,74.55,1.72
440,Payo,69,ID,1597780372,87,-3.75,103.64,73.08,2.26
441,Prieska,0,ZA,1597780372,57,-29.66,22.75,41.41,8.66
442,Nyuksenitsa,49,RU,1597780372,88,60.41,44.24,44.49,5.99
443,Bako,98,ET,1597780372,88,5.78,36.57,63.93,2.04
444,Sept-Îles,90,CA,1597780373,77,50.2,-66.38,64.4,11.41
445,Borogontsy,56,RU,1597780373,61,62.67,131.17,44.42,4.85
446,Jacareacanga,36,BR,1597780373,37,-6.22,-57.75,98.6,5.82
447,Ossora,100,RU,1597780373,63,59.24,163.07,56.26,7.27
448,Tura,81,IN,1597780374,94,25.52,90.22,75.33,5.57
449,Reconquista,0,AR,1597780374,28,-29.15,-59.65,73.85,5.44
450,San Julián,96,MX,1597780374,66,21.02,-102.17,70.12,3.71
451,San Ignacio,75,BZ,1597780374,55,17.16,-89.07,91.4,6.93
452,Wagar,94,SD,1597780374,55,16.15,36.2,86.11,19.69
453,Derzhavīnsk,98,KZ,1597780374,77,51.1,66.32,58.62,9.64
454,Fort Nelson,90,CA,1597780375,93,58.81,-122.7,59.0,5.82
455,Palmer,40,US,1597780375,34,42.16,-72.33,84.99,10.29
456,Chapais,90,CA,1597780375,72,49.78,-74.85,60.8,10.29
457,Wanaka,100,NZ,1597780200,85,-44.7,169.15,42.01,1.01
458,kimparana,89,ML,1597780375,56,12.83,-4.92,87.3,6.58
459,Shelburne,20,CA,1597780375,60,44.08,-80.2,72.0,8.05
460,Chenôve,19,FR,1597780375,77,47.29,5.0,69.8,2.24
461,Catuday,99,PH,1597780376,83,16.29,119.81,79.75,4.25
462,Don Luan,100,VN,1597780376,98,11.53,106.92,74.16,5.19
463,Taltal,5,CL,1597780376,61,-25.4,-70.48,58.1,8.81
464,San Policarpo,98,PH,1597780376,84,12.18,125.51,78.35,8.59
465,Venice,20,US,1597780180,62,27.1,-82.45,91.0,10.29
466,Abonnema,40,NG,1597780376,88,4.71,6.79,78.8,4.7
467,Villanueva de la Serena,19,ES,1597780376,41,38.98,-5.8,84.0,3.0
468,Port Montt,75,CL,1597780369,75,-41.47,-72.94,44.6,6.93
469,Madaoua,21,NE,1597780377,57,14.07,5.96,87.03,10.76
470,Iralaya,40,HN,1597780377,70,15.0,-83.23,89.6,5.82
471,Naica,100,MX,1597780377,31,27.85,-105.48,83.71,11.97
472,Río Gallegos,20,AR,1597780377,47,-51.62,-69.22,37.4,21.92
473,Totness,9,SR,1597780377,80,5.88,-56.32,83.01,12.5
474,Faya,40,SA,1597780378,64,18.39,42.45,77.0,5.82
475,Camacha,0,PT,1597780378,73,33.08,-16.33,75.2,9.17
476,Mgandu,98,TZ,1597780378,44,-5.95,34.13,64.78,8.32
477,Koumac,32,NC,1597780378,71,-20.57,164.28,64.71,6.58
478,Hunterville,100,NZ,1597780378,88,-39.93,175.57,51.01,7.49
479,Hambantota,61,LK,1597780378,83,6.12,81.12,79.23,15.93
480,Lompoc,1,US,1597780153,54,34.64,-120.46,87.01,12.75
481,Farkhor,75,TJ,1597780379,28,37.49,69.4,80.6,6.71
482,Obo,100,CF,1597780379,93,5.4,26.49,70.97,2.71
483,Feijó,70,BR,1597780379,39,-8.16,-70.35,94.66,4.12
484,Aksha,0,RU,1597780379,83,50.28,113.29,43.12,2.24
485,Baraki Barak,11,AF,1597780379,27,33.97,68.95,73.94,2.71
486,Kastamonu Province,0,TR,1597780351,82,41.5,33.67,55.94,1.63
487,Mangawān,92,IN,1597780380,83,24.68,81.55,82.53,4.9
488,Pacific Grove,1,US,1597780380,56,36.62,-121.92,93.99,5.82
489,Gorontalo,62,ID,1597780380,86,0.54,123.06,71.96,3.89
490,Alice Springs,0,AU,1597780245,22,-23.7,133.88,55.4,10.29
491,San Cristobal,40,VE,1597780215,62,7.77,-72.22,86.0,3.36
492,Pryazha,46,RU,1597780380,93,61.69,33.62,51.8,2.24
493,Eureka,98,US,1597780380,30,40.8,-124.16,69.01,1.99
494,La Ronge,20,CA,1597780381,65,55.1,-105.28,77.0,13.87
495,Haikou,64,CN,1597780381,94,20.05,110.34,78.8,2.24
496,Yelizovo,90,RU,1597780381,100,53.19,158.38,51.8,6.71
497,Acarí,91,PE,1597780381,52,-15.43,-74.62,67.44,10.58
498,Verkhnetulomskiy,40,RU,1597780381,81,68.61,31.8,50.0,4.47
499,Darhan,6,MN,1597780381,65,49.49,105.92,51.94,3.96
500,Vysokogornyy,63,RU,1597780382,95,50.12,139.15,52.29,4.65
501,Abhā,40,SA,1597780200,64,18.22,42.51,77.0,5.82
502,Enshi,97,CN,1597780382,82,30.3,109.48,72.21,1.7
503,Takapau,100,NZ,1597780382,86,-40.03,176.35,48.0,7.0
504,Richards Bay,60,ZA,1597780383,49,-28.78,32.04,60.12,4.23
505,Bloemhof,0,ZA,1597780383,76,-27.65,25.61,32.07,7.09
506,Yukuhashi,0,JP,1597780384,78,33.73,130.98,80.6,2.24
507,Marawi,100,PH,1597780384,94,8.0,124.29,73.0,5.99
508,Oyama,75,JP,1597780384,94,36.3,139.8,84.99,3.36
509,High Level,75,CA,1597780384,73,58.52,-117.14,71.6,2.24
510,Bonfim,100,BR,1597780384,59,3.08,-59.95,88.83,4.74
511,Midland,40,US,1597780147,27,32.0,-102.08,93.2,5.82
512,Coari,90,BR,1597780385,34,-4.08,-63.14,95.97,0.81
513,‘Āhuimanu,40,US,1597780385,61,21.44,-157.84,84.0,13.87
514,Mangalia,40,RO,1597780090,68,43.8,28.58,71.6,11.41
515,São José da Coroa Grande,38,BR,1597780385,82,-8.9,-35.15,75.38,12.75
516,Dalby,23,AU,1597780385,67,-27.18,151.27,54.0,10.96
517,Khao Yoi,95,TH,1597780385,75,13.24,99.82,75.99,3.65
518,Non Sang,75,TH,1597780386,100,16.87,102.57,75.2,3.36
519,Southampton,0,GB,1597780363,85,50.9,-1.4,66.0,7.36
520,Port Moresby,75,PG,1597780187,94,-9.44,147.18,71.6,3.36
521,Vanavara,30,RU,1597780386,62,60.34,102.28,49.57,5.53
522,Paraíso,75,CR,1597780386,54,9.84,-83.87,80.6,12.75
523,Namwala,0,ZM,1597780387,26,-15.75,26.44,67.95,5.12
524,Tegul'det,100,RU,1597780387,90,57.31,88.17,62.65,8.66
525,Coyhaique,40,CL,1597780387,36,-45.58,-72.07,44.6,6.93
526,Japura,50,ID,1597780387,93,-0.32,102.35,74.55,1.72
527,Portree,99,GB,1597780387,90,57.41,-6.19,62.01,1.99
528,Nosy Varika,20,MG,1597780387,89,-20.58,48.53,65.86,4.79
529,Khāsh,12,IR,1597780388,25,28.22,61.22,71.49,3.4
530,Podgorodnyaya Pokrovka,0,RU,1597780388,93,51.83,54.99,42.8,6.71
531,Chui,0,UY,1597780388,72,-33.7,-53.46,60.75,3.31
532,Amboasary,0,MG,1597780388,83,-25.03,46.38,69.8,24.16
533,Yerraguntla,98,IN,1597780388,71,14.64,78.54,80.33,16.2
534,Soto,0,AR,1597780389,20,-32.81,-61.4,73.4,13.87
535,Riohacha,97,CO,1597780389,71,11.54,-72.91,85.14,13.56
536,Yanam,100,IN,1597780389,92,16.73,82.22,77.7,5.79
537,Broome,40,US,1597780389,43,42.25,-75.83,78.01,11.41
538,Townsville,0,AU,1597780389,93,-19.25,146.8,62.6,4.16
539,Atkinson,20,US,1597780389,39,42.84,-71.15,84.99,12.75
540,Gorom-Gorom,71,BF,1597780390,47,14.44,-0.24,89.96,8.55
541,Nome,1,US,1597780390,59,64.5,-165.41,66.99,2.26
542,Blagoyevo,87,RU,1597780390,87,63.37,47.92,46.53,10.33
543,Kawalu,91,ID,1597780390,92,-7.38,108.21,69.93,2.17
544,Khani,1,GE,1597780390,94,41.96,42.96,68.0,3.36
545,Hokitika,100,NZ,1597780335,80,-42.72,170.97,51.8,13.13
546,Garden City,20,US,1597780390,38,42.33,-83.33,80.01,8.05
547,Sibolga,100,ID,1597780390,79,1.74,98.78,77.41,2.75
548,Churapcha,0,RU,1597780391,64,62.0,132.43,42.82,4.5
549,Ngorongoro,46,TZ,1597780391,64,-3.24,35.49,52.75,6.33
550,Okitipupa,0,NG,1597780391,92,6.5,4.78,73.51,4.05
551,Bubaque,100,GW,1597780391,85,11.28,-15.83,81.36,17.9
